# 
# Header Description:
# 
# Version: v3.1.1.1 Platform: 15 Manufacturer: samsung Model: SM-A556E GNSS Hardware Model Name: S.LSI,K044,SPOTNAV_4.14.16_99_MR_Rp
# 
# Raw,utcTimeMillis,TimeNanos,LeapSecond,TimeUncertaintyNanos,FullBiasNanos,BiasNanos,BiasUncertaintyNanos,DriftNanosPerSecond,DriftUncertaintyNanosPerSecond,HardwareClockDiscontinuityCount,Svid,TimeOffsetNanos,State,ReceivedSvTimeNanos,ReceivedSvTimeUncertaintyNanos,Cn0DbHz,PseudorangeRateMetersPerSecond,PseudorangeRateUncertaintyMetersPerSecond,AccumulatedDeltaRangeState,AccumulatedDeltaRangeMeters,AccumulatedDeltaRangeUncertaintyMeters,CarrierFrequencyHz,CarrierCycles,CarrierPhase,CarrierPhaseUncertainty,MultipathIndicator,SnrInDb,ConstellationType,AgcDb,BasebandCn0DbHz,FullInterSignalBiasNanos,FullInterSignalBiasUncertaintyNanos,SatelliteInterSignalBiasNanos,SatelliteInterSignalBiasUncertaintyNanos,CodeType,ChipsetElapsedRealtimeNanos,IsFullTracking,SvPositionEcefXMeters,SvPositionEcefYMeters,SvPositionEcefZMeters,SvVelocityEcefXMetersPerSecond,SvVelocityEcefYMetersPerSecond,SvVelocityEcefZMetersPerSecond,SvClockBiasMeters,SvClockDriftMetersPerSecond,KlobucharAlpha0,KlobucharAlpha1,KlobucharAlpha2,KlobucharAlpha3,KlobucharBeta0,KlobucharBeta1,KlobucharBeta2,KlobucharBeta3
# 
# UncalAccel,utcTimeMillis,elapsedRealtimeNanos,UncalAccelXMps2,UncalAccelYMps2,UncalAccelZMps2,BiasXMps2,BiasYMps2,BiasZMps2,CalibrationAccuracy
# 
# Accel,utcTimeMillis,elapsedRealtimeNanos,AccelXMps2,AccelYMps2,AccelZMps2,CalibrationAccuracy
# 
# UncalGyro,utcTimeMillis,elapsedRealtimeNanos,UncalGyroXRadPerSec,UncalGyroYRadPerSec,UncalGyroZRadPerSec,DriftXRadPerSec,DriftYRadPerSec,DriftZRadPerSec,CalibrationAccuracy
# 
# Gyro,utcTimeMillis,elapsedRealtimeNanos,GyroXRadPerSec,GyroYRadPerSec,GyroZRadPerSec,CalibrationAccuracy
# 
# UncalMag,utcTimeMillis,elapsedRealtimeNanos,UncalMagXMicroT,UncalMagYMicroT,UncalMagZMicroT,BiasXMicroT,BiasYMicroT,BiasZMicroT,CalibrationAccuracy
# 
# Mag,utcTimeMillis,elapsedRealtimeNanos,MagXMicroT,MagYMicroT,MagZMicroT,CalibrationAccuracy
# 
# Pressure,utcTimeMillis,elapsedRealtimeNanos,PressureHpa,CalibrationAccuracy
# 
# OrientationDeg,utcTimeMillis,elapsedRealtimeNanos,yawDeg,rollDeg,pitchDeg,CalibrationAccuracy
# 
# Fix,Provider,LatitudeDegrees,LongitudeDegrees,AltitudeMeters,SpeedMps,AccuracyMeters,BearingDegrees,UnixTimeMillis,SpeedAccuracyMps,BearingAccuracyDegrees,elapsedRealtimeNanos,VerticalAccuracyMeters,MockLocation,NumberOfUsedSignals,VerticalSpeedAccuracyMps,SolutionType
# 
# Nav,Svid,Type,Status,MessageId,Sub-messageId,Data(Bytes)
# 
# Status,UnixTimeMillis,SignalCount,SignalIndex,ConstellationType,Svid,CarrierFrequencyHz,Cn0DbHz,AzimuthDegrees,ElevationDegrees,UsedInFix,HasAlmanacData,HasEphemerisData,BasebandCn0DbHz
# 
# Agc,utcTimeMillis,TimeNanos,LeapSecond,TimeUncertaintyNanos,FullBiasNanos,BiasNanos,BiasUncertaintyNanos,DriftNanosPerSecond,DriftUncertaintyNanosPerSecond,HardwareClockDiscontinuityCount,AgcDb,CarrierFrequencyHz,ConstellationType
# 
Fix,NLP,-27.4946312000,153.0141775000,59.39999771118164,,37.843002,,1759126279814,,,64156154928814,5.996212,0,,,
Fix,FLP,-27.4940719000,153.0137891000,59.39999771118164,1.0843617,42.5,180.55414,1759126279257,1.16,45.0,64155597259446,1.5287446,0,,,
Status,,19,0,1,29,1575420030,22.00,62.9,65.2,1,0,1,17.0
Status,,19,1,1,23,1575420030,24.40,284.8,64.4,1,0,1,19.4
Status,,19,2,1,10,1575420030,41.40,308.7,22.4,1,0,1,36.4
Status,,19,3,1,25,1575420030,34.20,356.7,12.7,1,0,1,29.2
Status,,19,4,3,2,1599750020,19.90,49.5,64.5,1,0,1,14.9
Status,,19,5,3,15,1602000000,32.70,275.4,19.6,1,0,1,27.7
Status,,19,6,3,3,1602000000,30.70,352.4,19.5,0,0,1,25.7
Status,,19,7,3,14,1598062460,31.30,324.7,8.5,1,0,1,26.3
Status,,19,8,3,18,1600312450,20.40,231.9,6.0,0,0,1,15.4
Status,,19,9,6,25,1575420030,28.00,293.4,46.2,1,0,1,23.0
Status,,19,10,6,16,1575420030,26.50,327.4,40.4,0,0,1,21.5
Status,,19,11,6,6,1575420030,27.20,47.5,36.0,1,0,1,22.2
Status,,19,12,6,9,1575420030,31.70,21.1,26.0,1,0,1,26.7
Status,,19,13,6,24,1575420030,37.00,353.4,25.5,1,0,1,32.0
Status,,19,14,5,41,1575420030,40.20,18.1,68.6,1,0,1,35.2
Status,,19,15,5,3,1561097980,28.30,297.7,33.0,1,0,1,23.3
Status,,19,16,5,8,1561097980,23.30,312.2,26.9,0,0,1,18.3
Status,,19,17,5,13,1561097980,30.10,312.4,15.1,1,0,1,25.1
Status,,19,18,1,26,1575420030,15.50,257.8,24.2,0,1,1,10.5
Raw,1759126279999,7111448775,18,,-1443161490888551168,0.0,10.200191497802734,,,0,10,0.0,15,108697921718715,10,41.400001525878906,-1777.746337890625,0.07547397166490555,25,-10431.585253001445,0.05336764454841614,1575420030,,,,0,,1,5.199999809265137,36.400001525878906,0.0,0.0,0.0,0.0,C,64156597255412,1,-10002764.499617144,23954472.886093374,4903639.02284479,-474.61972562007185,414.363313653505,-3183.656546334436,-160975.14692020108,-0.0026522913831286132,0.000000027939677238464355,0.000000014901161193847656,-0.00000011920928955078125,-0.000000059604644775390625,135168.0,-16384.0,-262144.0,196608.0
Raw,1759126279999,7111448775,18,,-1443161490888551168,0.0,10.200191497802734,,,0,25,0.0,15,108697920138474,15,34.099998474121094,-580.8759765625,0.11809024214744568,16,0.0,0.08350160717964172,1575420030,,,,0,,1,5.199999809265137,29.100000381469727,0.0,0.0,0.0,0.0,C,64156597255412,1,-18275308.69180397,10775605.202422796,15446863.484924428,736.9824085316009,-1921.270858729974,2186.089429946126,140742.9105290856,-0.0017511637997813523,0.000000027939677238464355,0.000000014901161193847656,-0.00000011920928955078125,-0.000000059604644775390625,135168.0,-16384.0,-262144.0,196608.0
Raw,1759126279999,7111448775,18,,-1443161490888551168,0.0,10.200191497802734,,,0,23,0.0,15,108697932127453,29,24.399999618530273,-1361.8914794921875,0.2657030522823334,16,0.0,0.18787862360477448,1575420030,,,,0,,1,5.199999809265137,19.399999618530273,0.0,0.0,0.0,0.0,C,64156597255412,1,-16724115.829776779,18106119.680067886,-9482514.91336545,391.4464943002964,-1170.5940940805472,-2933.2946472453987,164832.3706027678,0.0011303182982373983,0.000000027939677238464355,0.000000014901161193847656,-0.00000011920928955078125,-0.000000059604644775390625,135168.0,-16384.0,-262144.0,196608.0
Raw,1759126279999,7111448775,18,,-1443161490888551168,0.0,10.200191497802734,,,0,29,0.0,15,108697930425926,35,22.0,-979.3734130859375,0.34602075815200806,16,0.0,0.2446712851524353,1575420030,,,,0,,1,5.199999809265137,17.0,0.0,0.0,0.0,0.0,C,64156597255412,1,-25054576.799508814,4086028.1178988894,-8103123.187132775,-1002.7704035571334,-303.0481626077817,2946.2591377893355,-134381.7952157708,0.0019660817633848637,0.000000027939677238464355,0.000000014901161193847656,-0.00000011920928955078125,-0.000000059604644775390625,135168.0,-16384.0,-262144.0,196608.0
Raw,1759126279999,7111448775,18,,-1443161490888551168,0.0,10.200191497802734,,,0,41,0.0,81921,108683926078843,11,40.099998474121094,-1436.7862548828125,0.08116818219423294,16,0.0,0.05739402025938034,1575420030,,,,0,,5,5.199999809265137,35.099998474121094,0.0,0.0,0.0,0.0,P,64156597255412,1,-25383168.222928304,10142116.91931208,-5636866.622312442,534.2888886788783,-371.6989009134414,-3049.346249269874,-290563.95750847866,-0.0022828892688266933,0.000000027939677238464355,0.000000014901161193847656,-0.00000011920928955078125,-0.000000059604644775390625,135168.0,-16384.0,-262144.0,196608.0
Raw,1759126279999,7111448775,18,,-1443161490888551168,0.0,10.200191497802734,,,0,24,0.0,3080,108697912191676,13,36.900001525878906,-650.6552124023438,0.09826947748661041,25,-2439.1674980815815,0.0694863498210907,1575420030,,,,0,,6,5.199999809265137,31.899999618530273,0.0,0.0,0.0,0.0,C,64156597255412,1,-22442946.601429798,14462677.063616142,12745622.603916988,819.2502149008375,-985.0775674168059,2559.5785898551694,-61017.103595270084,-0.006550922938913573,0.000000027939677238464355,0.000000014901161193847656,-0.00000011920928955078125,-0.000000059604644775390625,135168.0,-16384.0,-262144.0,196608.0
Raw,1759126279999,7111448775,18,,-1443161490888551168,0.0,10.200191497802734,,,0,15,0.0,227,33079924517281,16,32.599998474121094,-804.1858520507812,0.13127493858337402,16,0.0,0.09282451122999191,1602000000,,,,0,,3,5.199999809265137,27.600000381469727,0.0,0.0,0.0,0.0,C,64156597255412,1,-2269873.825108537,24980995.501795046,-4644533.916398903,27.71515477354751,654.055630301787,3488.24380981364,19086.07095146738,0.0,0.000000027939677238464355,0.000000014901161193847656,-0.00000011920928955078125,-0.000000059604644775390625,135168.0,-16384.0,-262144.0,196608.0
Raw,1759126279999,7111448775,18,,-1443161490888551168,0.0,10.200191497802734,,,0,14,0.0,227,33079920720084,17,31.299999237060547,-557.3250122070312,0.14457345008850098,16,0.0,0.10222788900136948,1598062460,,,,0,,3,5.199999809265137,26.299999237060547,0.0,0.0,0.0,0.0,C,64156597255412,1,-9570434.922628656,20104944.177333917,12478871.530055454,398.3195440647539,-1661.4533829758507,2983.1897253382112,8949.309267358854,0.0,0.000000027939677238464355,0.000000014901161193847656,-0.00000011920928955078125,-0.000000059604644775390625,135168.0,-16384.0,-262144.0,196608.0
Raw,1759126279999,7111448775,18,,-1443161490888551168,0.0,10.200191497802734,,,0,9,0.0,3080,108697912490391,17,31.600000381469727,-1698.2152099609375,0.1413307636976242,19,-9261.405085021353,0.19508181512355804,1575420030,,,,0,,6,5.199999809265137,26.600000381469727,0.0,0.0,0.0,0.0,C,64156597255412,1,-27065920.357371144,4249144.88052862,11216776.98722571,-1126.8472381966649,-65.44368097355188,-2690.7949503878976,-9360.68120488838,-0.004622608101271908,0.000000027939677238464355,0.000000014901161193847656,-0.00000011920928955078125,-0.000000059604644775390625,135168.0,-16384.0,-262144.0,196608.0
Raw,1759126279999,7111448775,18,,-1443161490888551168,0.0,10.200191497802734,,,0,13,0.0,15,108683866557633,19,30.100000381469727,-1351.6943359375,0.15872763097286224,16,0.0,0.11223630607128143,1561097980,,,,0,,5,5.199999809265137,25.100000381469727,0.0,0.0,0.0,0.0,I,64156597255412,1,-11073951.971984297,37606464.22247934,15322107.85365113,887.4097459802982,1230.0038536428692,-2422.334839521859,-42744.272082401745,-0.004060595390910748,0.000000027939677238464355,0.000000014901161193847656,-0.00000011920928955078125,-0.000000059604644775390625,135168.0,-16384.0,-262144.0,196608.0
Raw,1759126279999,7111448775,18,,-1443161490888551168,0.0,10.200191497802734,,,0,3,0.0,305,896782,21,28.299999237060547,-1192.87939453125,0.18419939279556274,16,0.0,0.13024738430976868,1561097980,,,,0,,5,5.199999809265137,23.299999237060547,0.0,0.0,0.0,0.0,I,64156597255412,1,,,,,,,,,0.000000027939677238464355,0.000000014901161193847656,-0.00000011920928955078125,-0.000000059604644775390625,135168.0,-16384.0,-262144.0,196608.0
Raw,1759126279999,7111448775,18,,-1443161490888551168,0.0,10.200191497802734,,,0,25,0.0,3080,108697917768575,22,28.0,-939.6878051757812,0.18903592228889465,16,0.0,0.13366730511188507,1575420030,,,,0,,6,5.199999809265137,23.0,0.0,0.0,0.0,0.0,C,64156597255412,1,-14828577.891659057,25098897.843595922,-5105464.456203745,-264.8906595738324,443.42595908874557,2945.2449387600454,6200.978148798881,0.000041243296436732635,0.000000027939677238464355,0.000000014901161193847656,-0.00000011920928955078125,-0.000000059604644775390625,135168.0,-16384.0,-262144.0,196608.0
Raw,1759126279999,7111448775,18,,-1443161490888551168,0.0,10.200191497802734,,,0,6,0.0,3080,108697915147660,23,27.200000762939453,-1583.8282470703125,0.2029055953025818,16,0.0,0.1434745490550995,1575420030,,,,0,,6,5.199999809265137,22.200000762939453,0.0,0.0,0.0,0.0,C,64156597255412,1,-29424464.061757613,-2012068.1270504396,2469268.0454184343,-254.01077958612174,17.194480807149667,-2988.0524161228186,-52201.20390679953,-0.0014608289493480697,0.000000027939677238464355,0.000000014901161193847656,-0.00000011920928955078125,-0.000000059604644775390625,135168.0,-16384.0,-262144.0,196608.0
Raw,1759126279999,7111448775,18,,-1443161490888551168,0.0,10.200191497802734,,,0,16,0.0,3080,108697916326213,24,26.399999618530273,-759.1248779296875,0.21835967898368835,16,0.0,0.15440212190151215,1575420030,,,,0,,6,5.199999809265137,21.399999618530273,0.0,0.0,0.0,0.0,C,64156597255412,1,-19857774.692056302,21623528.8484306,3839446.0696018287,287.70049730850553,-263.9984509811695,2977.692207723424,-19688.330769871915,-0.0006922665888851043,0.000000027939677238464355,0.000000014901161193847656,-0.00000011920928955078125,-0.000000059604644775390625,135168.0,-16384.0,-262144.0,196608.0
Raw,1759126279999,7111448775,18,,-1443161490888551168,0.0,10.200191497802734,,,0,18,0.0,227,33079920008788,41,20.399999618530273,-1655.55859375,0.4216562807559967,16,0.0,0.2981531620025635,1600312450,,,,0,,3,5.199999809265137,15.399999618530273,0.0,0.0,0.0,0.0,C,64156597255412,1,7567068.420887596,17263838.383647762,-17185233.974769663,-1662.4166970475983,-1679.3900332768108,-2412.693857775308,67375.17504146448,0.0005453193043649662,0.000000027939677238464355,0.000000014901161193847656,-0.00000011920928955078125,-0.000000059604644775390625,135168.0,-16384.0,-262144.0,196608.0
Raw,1759126279999,7111448775,18,,-1443161490888551168,0.0,10.200191497802734,,,0,2,0.0,227,33079934766856,44,19.899999618530273,-1471.4652099609375,0.4504301846027374,16,0.0,0.3184991776943207,1599750020,,,,0,,3,5.199999809265137,14.899999618530273,0.0,0.0,0.0,0.0,C,64156597255412,1,-24135084.501079105,5133142.644278153,-6273529.143251587,882.8909797690728,-96.97204766441564,-3461.1352133717346,-6805.026511507109,0.0,0.000000027939677238464355,0.000000014901161193847656,-0.00000011920928955078125,-0.000000059604644775390625,135168.0,-16384.0,-262144.0,196608.0
Agc,1759126279999,7111448775,18,,-1443161490888551168,0.0,10.200191497802734,,,0,5.199999809265137,1575420032,1
Agc,1759126279999,7111448775,18,,-1443161490888551168,0.0,10.200191497802734,,,0,5.199999809265137,1575420032,1
Agc,1759126279999,7111448775,18,,-1443161490888551168,0.0,10.200191497802734,,,0,5.199999809265137,1575420032,1
Agc,1759126279999,7111448775,18,,-1443161490888551168,0.0,10.200191497802734,,,0,5.199999809265137,1575420032,1
Agc,1759126279999,7111448775,18,,-1443161490888551168,0.0,10.200191497802734,,,0,5.199999809265137,1575420032,5
Agc,1759126279999,7111448775,18,,-1443161490888551168,0.0,10.200191497802734,,,0,5.199999809265137,1575420032,6
Agc,1759126279999,7111448775,18,,-1443161490888551168,0.0,10.200191497802734,,,0,5.199999809265137,1602000000,3
Agc,1759126279999,7111448775,18,,-1443161490888551168,0.0,10.200191497802734,,,0,5.199999809265137,1598062464,3
Agc,1759126279999,7111448775,18,,-1443161490888551168,0.0,10.200191497802734,,,0,5.199999809265137,1575420032,6
Agc,1759126279999,7111448775,18,,-1443161490888551168,0.0,10.200191497802734,,,0,5.199999809265137,1561097984,5
Agc,1759126279999,7111448775,18,,-1443161490888551168,0.0,10.200191497802734,,,0,5.199999809265137,1561097984,5
Agc,1759126279999,7111448775,18,,-1443161490888551168,0.0,10.200191497802734,,,0,5.199999809265137,1575420032,6
Agc,1759126279999,7111448775,18,,-1443161490888551168,0.0,10.200191497802734,,,0,5.199999809265137,1575420032,6
Agc,1759126279999,7111448775,18,,-1443161490888551168,0.0,10.200191497802734,,,0,5.199999809265137,1575420032,6
Agc,1759126279999,7111448775,18,,-1443161490888551168,0.0,10.200191497802734,,,0,5.199999809265137,1600312448,3
Agc,1759126279999,7111448775,18,,-1443161490888551168,0.0,10.200191497802734,,,0,5.199999809265137,1599750016,3
Fix,GPS,-27.4942351319,153.0139098689,106.0,0.0,36.5,,1759126280000,0.91,,64156597255412,28.0,0,,,
Fix,FLP,-27.4941863000,153.0138715000,59.39999771118164,6.123824,40.5,150.96474,1759126280257,0.91,45.0,64156597255412,1.5387444,0,,,
Status,,19,0,1,29,1575420030,22.00,62.9,65.2,0,0,1,17.0
Status,,19,1,1,23,1575420030,24.40,284.8,64.4,0,0,1,19.4
Status,,19,2,1,10,1575420030,41.40,308.7,22.4,1,0,1,36.4
Status,,19,3,1,25,1575420030,34.00,356.7,12.7,1,0,1,29.0
Status,,19,4,3,2,1599750020,19.90,49.5,64.5,0,0,1,14.9
Status,,19,5,3,15,1602000000,32.60,275.4,19.6,1,0,1,27.6
Status,,19,6,3,3,1602000000,27.70,352.4,19.5,0,0,1,22.7
Status,,19,7,3,14,1598062460,31.20,324.7,8.5,0,0,1,26.2
Status,,19,8,3,18,1600312450,20.30,231.9,6.0,0,0,1,15.3
Status,,19,9,6,25,1575420030,28.00,293.4,46.2,1,0,1,23.0
Status,,19,10,6,16,1575420030,26.40,327.4,40.4,1,0,1,21.4
Status,,19,11,6,6,1575420030,27.30,47.5,36.0,1,0,1,22.3
Status,,19,12,6,9,1575420030,31.50,21.1,26.0,1,0,1,26.5
Status,,19,13,6,24,1575420030,36.90,353.4,25.5,1,0,1,31.9
Status,,19,14,5,41,1575420030,40.10,18.1,68.6,1,0,1,35.1
Status,,19,15,5,3,1561097980,28.30,297.7,33.0,1,0,1,23.3
Status,,19,16,5,8,1561097980,20.30,312.2,26.9,0,0,1,15.3
Status,,19,17,5,13,1561097980,30.00,312.4,15.1,0,0,1,25.0
Status,,19,18,1,26,1575420030,13.30,257.8,24.2,0,1,1,8.3
Raw,1759126280999,8111444743,18,,-1443161490888555264,0.0,10.200191497802734,,,0,10,0.0,15,108698921720622,10,41.400001525878906,-1777.371826171875,0.07547397166490555,25,-12209.119502404057,0.05336764454841614,1575420030,,,,0,,1,6.5,36.400001525878906,0.0,0.0,0.0,0.0,C,64157597251387,1,-10003239.008501496,23954887.08953458,4900455.307217995,-474.39623965012,414.04198208475043,-3183.762553102457,-160975.14957256522,-0.0026524268032517284,0.000000027939677238464355,0.000000014901161193847656,-0.00000011920928955078125,-0.000000059604644775390625,135168.0,-16384.0,-262144.0,196608.0
Raw,1759126280999,8111444743,18,,-1443161490888555264,0.0,10.200191497802734,,,0,25,0.0,15,108698920136354,15,34.0,-580.140380859375,0.11890606582164764,16,0.0,0.08407847583293915,1575420030,,,,0,,1,6.5,29.0,0.0,0.0,0.0,0.0,C,64157597251387,1,-18274571.698149756,10773683.7917366,15449049.399357883,737.008015809205,-1921.5586557793254,2185.748697105513,140742.908777896,-0.001751222851453349,0.000000027939677238464355,0.000000014901161193847656,-0.00000011920928955078125,-0.000000059604644775390625,135168.0,-16384.0,-262144.0,196608.0
Raw,1759126280999,8111444743,18,,-1443161490888555264,0.0,10.200191497802734,,,0,23,0.0,15,108698932127953,29,24.399999618530273,-1360.6949462890625,0.2657030522823334,16,0.0,0.18787862360477448,1575420030,,,,0,,1,6.5,19.399999618530273,0.0,0.0,0.0,0.0,C,64157597251387,1,-16723724.33195707,18104948.909062255,-9485448.106841957,391.54874396599484,-1170.946745678121,-2933.0893620360707,164832.37173309212,0.0011303292121738195,0.000000027939677238464355,0.000000014901161193847656,-0.00000011920928955078125,-0.000000059604644775390625,135168.0,-16384.0,-262144.0,196608.0
Raw,1759126280999,8111444743,18,,-1443161490888555264,0.0,10.200191497802734,,,0,29,0.0,15,108698930425218,35,22.0,-977.9415893554688,0.34602075815200806,16,0.0,0.2446712851524353,1575420030,,,,0,,1,6.5,17.0,0.0,0.0,0.0,0.0,C,64157597251387,1,-25055579.39400571,4085725.110891617,-8100176.844724241,-1002.4200052779042,-302.96628866059757,2946.429840963441,-134381.79324968977,0.0019660831603687257,0.000000027939677238464355,0.000000014901161193847656,-0.00000011920928955078125,-0.000000059604644775390625,135168.0,-16384.0,-262144.0,196608.0
Raw,1759126280999,8111444743,18,,-1443161490888555264,0.0,10.200191497802734,,,0,41,0.0,81921,108684926079578,11,40.099998474121094,-1436.4910888671875,0.08116818219423294,16,0.0,0.05739402025938034,1575420030,,,,0,,5,6.5,35.099998474121094,0.0,0.0,0.0,0.0,P,64157597251387,1,-25382633.795531016,10141745.115152344,-5639915.9191065645,534.5651140709574,-371.9088779213769,-3049.242847142481,-290563.9597913783,-0.0022829066147096455,0.000000027939677238464355,0.000000014901161193847656,-0.00000011920928955078125,-0.000000059604644775390625,135168.0,-16384.0,-262144.0,196608.0
Raw,1759126280999,8111444743,18,,-1443161490888555264,0.0,10.200191497802734,,,0,24,0.0,3080,108698912189817,13,36.79999923706055,-650.312744140625,0.09888850152492523,25,-3089.6246643644636,0.06992405652999878,1575420030,,,,0,,6,6.5,31.799999237060547,0.0,0.0,0.0,0.0,C,64157597251387,1,-22442127.311525688,14461691.855286226,12748182.07963439,819.332631540963,-985.3427558063597,2559.3823544214724,-61017.1101461813,-0.00655092386296019,0.000000027939677238464355,0.000000014901161193847656,-0.00000011920928955078125,-0.000000059604644775390625,135168.0,-16384.0,-262144.0,196608.0
Raw,1759126280999,8111444743,18,,-1443161490888555264,0.0,10.200191497802734,,,0,15,0.0,227,33080924515935,16,32.599998474121094,-802.2943115234375,0.13127493858337402,16,0.0,0.09282451122999191,1602000000,,,,0,,3,6.5,27.600000381469727,0.0,0.0,0.0,0.0,C,64157597251387,1,-2269846.041084589,24981649.321010187,-4641045.621537349,27.852942281616606,653.5845644981443,3488.3553151500305,19086.07095146738,0.0,0.000000027939677238464355,0.000000014901161193847656,-0.00000011920928955078125,-0.000000059604644775390625,135168.0,-16384.0,-262144.0,196608.0
Raw,1759126280999,8111444743,18,,-1443161490888555264,0.0,10.200191497802734,,,0,9,0.0,3080,108698912491986,17,31.5,-1698.21923828125,0.14239943027496338,25,-10959.585874011078,0.10069064050912857,1575420030,,,,0,,6,6.5,26.5,0.0,0.0,0.0,0.0,C,64157597251387,1,-27067047.075232938,4249079.4975665035,11214086.10181553,-1126.5848862767598,-65.32204094353946,-2690.9672790726886,-9360.685827501886,-0.004622604170435807,0.000000027939677238464355,0.000000014901161193847656,-0.00000011920928955078125,-0.000000059604644775390625,135168.0,-16384.0,-262144.0,196608.0
Raw,1759126280999,8111444743,18,,-1443161490888555264,0.0,10.200191497802734,,,0,14,0.0,227,33080920717656,17,31.200000762939453,-556.9185791015625,0.14567914605140686,16,0.0,0.10300972312688828,1598062460,,,,0,,3,6.5,26.200000762939453,0.0,0.0,0.0,0.0,C,64157597251387,1,-9570036.635967797,20103282.511470933,12481854.562937755,398.2556929914058,-1661.8864226719245,2982.8905331576175,8949.309267358854,0.0,0.000000027939677238464355,0.000000014901161193847656,-0.00000011920928955078125,-0.000000059604644775390625,135168.0,-16384.0,-262144.0,196608.0
Raw,1759126280999,8111444743,18,,-1443161490888555264,0.0,10.200191497802734,,,0,13,0.0,15,108684866558167,19,30.0,-1352.1470947265625,0.1599999964237213,16,0.0,0.11313600093126297,1561097980,,,,0,,5,6.5,25.0,0.0,0.0,0.0,0.0,I,64157597251387,1,-11073064.47192017,37607694.16175004,15319685.47656448,887.5894313100889,1229.8733697487692,-2422.416744483602,-42744.27614301152,-0.004060619838128332,0.000000027939677238464355,0.000000014901161193847656,-0.00000011920928955078125,-0.000000059604644775390625,135168.0,-16384.0,-262144.0,196608.0
Raw,1759126280999,8111444743,18,,-1443161490888555264,0.0,10.200191497802734,,,0,3,0.0,305,896749,21,28.200000762939453,-1195.3253173828125,0.18579070270061493,16,0.0,0.1313726007938385,1561097980,,,,0,,5,6.5,23.200000762939453,0.0,0.0,0.0,0.0,I,64157597251387,1,,,,,,,,,0.000000027939677238464355,0.000000014901161193847656,-0.00000011920928955078125,-0.000000059604644775390625,135168.0,-16384.0,-262144.0,196608.0
Raw,1759126280999,8111444743,18,,-1443161490888555264,0.0,10.200191497802734,,,0,25,0.0,3080,108698917767694,22,28.0,-938.4189453125,0.18903592228889465,16,0.0,0.13366730511188507,1575420030,,,,0,,6,6.5,23.0,0.0,0.0,0.0,0.0,C,64157597251387,1,-14828842.675169917,25099341.162230812,-5102519.174608212,-264.67683349688946,443.21208585450154,2945.323434346351,6200.9781900431535,0.00004124532097193878,0.000000027939677238464355,0.000000014901161193847656,-0.00000011920928955078125,-0.000000059604644775390625,135168.0,-16384.0,-262144.0,196608.0
Raw,1759126280999,8111444743,18,,-1443161490888555264,0.0,10.200191497802734,,,0,6,0.0,3080,108698915148905,23,27.299999237060547,-1582.91015625,0.20108991861343384,16,0.0,0.14219067990779877,1575420030,,,,0,,6,6.5,22.299999237060547,0.0,0.0,0.0,0.0,C,64157597251387,1,-29424717.923609596,-2012050.9039128216,2466279.9703012565,-253.71229046673227,17.251744228109807,-2988.0903702877386,-52201.20536762714,-0.001460822626540903,0.000000027939677238464355,0.000000014901161193847656,-0.00000011920928955078125,-0.000000059604644775390625,135168.0,-16384.0,-262144.0,196608.0
Raw,1759126280999,8111444743,18,,-1443161490888555264,0.0,10.200191497802734,,,0,16,0.0,3080,108698916324737,24,26.299999237060547,-757.1190795898438,0.22041483223438263,16,0.0,0.15585532784461975,1575420030,,,,0,,6,6.5,21.299999237060547,0.0,0.0,0.0,0.0,C,64157597251387,1,-19857486.91155307,21623264.720833775,3842423.727918493,287.86135186194696,-264.257525896003,2977.6332080375387,-19688.33146213692,-0.0006922654647496529,0.000000027939677238464355,0.000000014901161193847656,-0.00000011920928955078125,-0.000000059604644775390625,135168.0,-16384.0,-262144.0,196608.0
Raw,1759126280999,8111444743,18,,-1443161490888555264,0.0,10.200191497802734,,,0,18,0.0,227,33080920010123,42,20.299999237060547,-1654.8994140625,0.42718610167503357,16,0.0,0.3020632863044739,1600312450,,,,0,,3,6.5,15.300000190734863,0.0,0.0,0.0,0.0,C,64157597251387,1,7565405.808778883,17262158.951221526,-17187646.46543516,-1662.8030982320256,-1679.4703249078907,-2412.28104461739,67375.1755867845,0.0005453193043649662,0.000000027939677238464355,0.000000014901161193847656,-0.00000011920928955078125,-0.000000059604644775390625,135168.0,-16384.0,-262144.0,196608.0
Raw,1759126280999,8111444743,18,,-1443161490888555264,0.0,10.200191497802734,,,0,2,0.0,227,33080934767627,44,19.799999237060547,-1470.2794189453125,0.4565376043319702,16,0.0,0.32281774282455444,1599750020,,,,0,,3,6.5,14.800000190734863,0.0,0.0,0.0,0.0,C,64157597251387,1,-24134201.389182426,5133045.559424091,-6276990.20532414,883.3314415045362,-97.19753427297996,-3460.9836090033673,-6805.026511507109,0.0,0.000000027939677238464355,0.000000014901161193847656,-0.00000011920928955078125,-0.000000059604644775390625,135168.0,-16384.0,-262144.0,196608.0
Agc,1759126280999,8111444743,18,,-1443161490888555264,0.0,10.200191497802734,,,0,6.5,1575420032,1
Agc,1759126280999,8111444743,18,,-1443161490888555264,0.0,10.200191497802734,,,0,6.5,1575420032,1
Agc,1759126280999,8111444743,18,,-1443161490888555264,0.0,10.200191497802734,,,0,6.5,1575420032,1
Agc,1759126280999,8111444743,18,,-1443161490888555264,0.0,10.200191497802734,,,0,6.5,1575420032,1
Agc,1759126280999,8111444743,18,,-1443161490888555264,0.0,10.200191497802734,,,0,6.5,1575420032,5
Agc,1759126280999,8111444743,18,,-1443161490888555264,0.0,10.200191497802734,,,0,6.5,1575420032,6
Agc,1759126280999,8111444743,18,,-1443161490888555264,0.0,10.200191497802734,,,0,6.5,1602000000,3
Agc,1759126280999,8111444743,18,,-1443161490888555264,0.0,10.200191497802734,,,0,6.5,1575420032,6
Agc,1759126280999,8111444743,18,,-1443161490888555264,0.0,10.200191497802734,,,0,6.5,1598062464,3
Agc,1759126280999,8111444743,18,,-1443161490888555264,0.0,10.200191497802734,,,0,6.5,1561097984,5
Agc,1759126280999,8111444743,18,,-1443161490888555264,0.0,10.200191497802734,,,0,6.5,1561097984,5
Agc,1759126280999,8111444743,18,,-1443161490888555264,0.0,10.200191497802734,,,0,6.5,1575420032,6
Agc,1759126280999,8111444743,18,,-1443161490888555264,0.0,10.200191497802734,,,0,6.5,1575420032,6
Agc,1759126280999,8111444743,18,,-1443161490888555264,0.0,10.200191497802734,,,0,6.5,1575420032,6
Agc,1759126280999,8111444743,18,,-1443161490888555264,0.0,10.200191497802734,,,0,6.5,1600312448,3
Agc,1759126280999,8111444743,18,,-1443161490888555264,0.0,10.200191497802734,,,0,6.5,1599750016,3
Fix,GPS,-27.4942984991,153.0139366910,98.0,0.21,35.0,331.5,1759126281000,0.87,92.9,64157597251387,26.0,0,,,
Fix,FLP,-27.4942297000,153.0138963000,59.39999771118164,0.18704394,39.125,329.0193,1759126281257,0.87,92.9,64157597251387,1.5487444,0,,,
Status,,19,0,1,29,1575420030,21.90,62.9,65.2,0,0,1,16.9
Status,,19,1,1,23,1575420030,24.60,284.8,64.4,1,0,1,19.6
Status,,19,2,1,10,1575420030,41.40,308.7,22.4,1,0,1,36.4
Status,,19,3,1,25,1575420030,33.90,356.7,12.7,1,0,1,28.9
Status,,19,4,3,2,1599750020,19.80,49.5,64.5,0,0,1,14.8
Status,,19,5,3,15,1602000000,32.60,275.4,19.6,1,0,1,27.6
Status,,19,6,3,3,1602000000,24.70,352.4,19.5,0,0,1,19.7
Status,,19,7,3,14,1598062460,30.30,324.7,8.5,0,0,1,25.3
Status,,19,8,3,18,1600312450,20.30,231.9,6.0,0,0,1,15.3
Status,,19,9,6,25,1575420030,28.30,293.4,46.2,1,0,1,23.3
Status,,19,10,6,16,1575420030,26.30,327.4,40.4,1,0,1,21.3
Status,,19,11,6,6,1575420030,27.30,47.5,36.0,1,0,1,22.3
Status,,19,12,6,9,1575420030,31.40,21.1,26.0,1,0,1,26.4
Status,,19,13,6,24,1575420030,36.70,353.4,25.5,1,0,1,31.7
Status,,19,14,5,41,1575420030,40.70,18.1,68.6,1,0,1,35.7
Status,,19,15,5,3,1561097980,28.20,297.7,33.0,1,0,1,23.2
Status,,19,16,5,8,1561097980,17.30,312.2,26.9,0,0,1,12.3
Status,,19,17,5,13,1561097980,29.90,312.4,15.1,1,0,1,24.9
Status,,19,18,1,26,1575420030,12.00,257.8,24.2,0,1,1,7.0
Raw,1759126281999,9111440772,18,,-1443161490888559104,0.0,10.200191497802734,,,0,10,0.0,15,108699921722592,10,41.29999923706055,-1777.8856201171875,0.07589038461446762,25,-13986.883344493945,0.05366209149360657,1575420030,,,,0,,1,6.5,36.29999923706055,0.0,0.0,0.0,0.0,C,64158597247406,1,-10003713.293948436,23955300.97164895,4897271.485417872,-474.1727919225441,413.7206090552137,-3183.868491458734,-160975.15222506487,-0.0026525621360633522,0.000000027939677238464355,0.000000014901161193847656,-0.00000011920928955078125,-0.000000059604644775390625,135168.0,-16384.0,-262144.0,196608.0
Raw,1759126281999,9111440772,18,,-1443161490888559104,0.0,10.200191497802734,,,0,25,0.0,15,108699920134311,15,33.900001525878906,-581.4915771484375,0.1197303757071495,16,0.0,0.08466134965419769,1575420030,,,,0,,1,6.5,28.899999618530273,0.0,0.0,0.0,0.0,C,64158597247406,1,-18273834.678858355,10771762.093120016,15451234.973203104,737.0335694727463,-1921.8464248303708,2185.4079154463598,140742.90702664718,-0.0017512819031253457,0.000000027939677238464355,0.000000014901161193847656,-0.00000011920928955078125,-0.000000059604644775390625,135168.0,-16384.0,-262144.0,196608.0
Raw,1759126281999,9111440772,18,,-1443161490888559104,0.0,10.200191497802734,,,0,23,0.0,15,108699932128486,28,24.600000381469727,-1361.089599609375,0.2603082060813904,16,0.0,0.18406392633914948,1575420030,,,,0,,1,6.5,19.600000381469727,0.0,0.0,0.0,0.0,C,64158597247406,1,-16723332.731903696,18103777.785368375,-9488381.095098231,391.65093568377677,-1171.2993929417553,-2932.8840134040165,164832.3728634274,0.0011303401552140713,0.000000027939677238464355,0.000000014901161193847656,-0.00000011920928955078125,-0.000000059604644775390625,135168.0,-16384.0,-262144.0,196608.0
Raw,1759126281999,9111440772,18,,-1443161490888559104,0.0,10.200191497802734,,,0,29,0.0,15,108699930424388,36,21.899999618530273,-977.82861328125,0.35012781620025635,16,0.0,0.24757537245750427,1575420030,,,,0,,1,6.5,16.899999618530273,0.0,0.0,0.0,0.0,C,64158597247406,1,-25056581.63796844,4085422.1857720735,-8097230.332003202,-1002.0695793263535,-302.8844610550965,2946.6004820308767,-134381.79128360754,0.0019660845573525876,0.000000027939677238464355,0.000000014901161193847656,-0.00000011920928955078125,-0.000000059604644775390625,135168.0,-16384.0,-262144.0,196608.0
Raw,1759126281999,9111440772,18,,-1443161490888559104,0.0,10.200191497802734,,,0,41,0.0,81921,108685926080409,10,40.70000076293945,-1437.392578125,0.07846274971961975,19,-2087.5698784321867,0.15062785148620605,1575420030,,,,0,,5,6.5,35.70000076293945,0.0,0.0,0.0,0.0,P,64158597247406,1,-25382099.09187543,10141373.100961987,-5642965.11276321,534.8413021513895,-372.11889048898684,-3049.1393890287045,-290563.9620742954,-0.002282923902384937,0.000000027939677238464355,0.000000014901161193847656,-0.00000011920928955078125,-0.000000059604644775390625,135168.0,-16384.0,-262144.0,196608.0
Raw,1759126281999,9111440772,18,,-1443161490888559104,0.0,10.200191497802734,,,0,24,0.0,3080,108699912187998,13,36.599998474121094,-650.846923828125,0.10014420747756958,25,-3740.3399517058506,0.07081197202205658,1575420030,,,,0,,6,6.5,31.600000381469727,0.0,0.0,0.0,0.0,C,64158597247406,1,-22441307.939195797,14460706.381727893,12750741.359199392,819.415001256272,-985.6079462971477,2559.1860795784482,-61017.11669709371,-0.006550924772454891,0.000000027939677238464355,0.000000014901161193847656,-0.00000011920928955078125,-0.000000059604644775390625,135168.0,-16384.0,-262144.0,196608.0
Raw,1759126281999,9111440772,18,,-1443161490888559104,0.0,10.200191497802734,,,0,15,0.0,227,33081924514615,16,32.599998474121094,-803.4485473632812,0.13127493858337402,16,0.0,0.09282451122999191,1602000000,,,,0,,3,6.5,27.600000381469727,0.0,0.0,0.0,0.0,C,64158597247406,1,-2269818.1193071934,24982302.66916108,-4637557.215121829,27.9906605515921,653.1134665653653,3488.466736674413,19086.07095146738,0.0,0.000000027939677238464355,0.000000014901161193847656,-0.00000011920928955078125,-0.000000059604644775390625,135168.0,-16384.0,-262144.0,196608.0
Raw,1759126281999,9111440772,18,,-1443161490888559104,0.0,10.200191497802734,,,0,9,0.0,3080,108699912493739,17,31.399999618530273,-1698.6846923828125,0.14348027110099792,25,-12658.129820731083,0.10145489871501923,1575420030,,,,0,,6,6.5,26.399999618530273,0.0,0.0,0.0,0.0,C,64158597247406,1,-27068173.53090584,4249014.236215511,11211395.043671886,-1126.3225053060546,-65.20043849519301,-2691.1395664193037,-9360.6904501122,-0.004622600246875663,0.000000027939677238464355,0.000000014901161193847656,-0.00000011920928955078125,-0.000000059604644775390625,135168.0,-16384.0,-262144.0,196608.0
Raw,1759126281999,9111440772,18,,-1443161490888559104,0.0,10.200191497802734,,,0,13,0.0,15,108685866558698,19,29.899999618530273,-1351.64892578125,0.16128772497177124,16,0.0,0.11404655128717422,1561097980,,,,0,,5,6.5,24.899999618530273,0.0,0.0,0.0,0.0,I,64158597247406,1,-11072176.79218272,37608923.97051985,15317263.01758652,887.769097651438,1229.7428593812488,-2422.4986365913273,-42744.28020364574,-0.004060644278069958,0.000000027939677238464355,0.000000014901161193847656,-0.00000011920928955078125,-0.000000059604644775390625,135168.0,-16384.0,-262144.0,196608.0
Raw,1759126281999,9111440772,18,,-1443161490888559104,0.0,10.200191497802734,,,0,25,0.0,3080,108699917766872,21,28.299999237060547,-939.7334594726562,0.18419939279556274,16,0.0,0.13024738430976868,1575420030,,,,0,,6,6.5,23.299999237060547,0.0,0.0,0.0,0.0,C,64158597247406,1,-14829107.244884813,25099784.267000955,-5099573.814366038,-264.46303595199856,442.99817698863933,2945.401884634641,6200.978231289453,0.000041247344597650226,0.000000027939677238464355,0.000000014901161193847656,-0.00000011920928955078125,-0.000000059604644775390625,135168.0,-16384.0,-262144.0,196608.0
Raw,1759126281999,9111440772,18,,-1443161490888559104,0.0,10.200191497802734,,,0,3,0.0,305,896785,21,28.200000762939453,-1191.69677734375,0.18579070270061493,16,0.0,0.1313726007938385,1561097980,,,,0,,5,6.5,23.200000762939453,0.0,0.0,0.0,0.0,I,64158597247406,1,,,,,,,,,0.000000027939677238464355,0.000000014901161193847656,-0.00000011920928955078125,-0.000000059604644775390625,135168.0,-16384.0,-262144.0,196608.0
Raw,1759126281999,9111440772,18,,-1443161490888559104,0.0,10.200191497802734,,,0,6,0.0,3080,108699915150242,23,27.299999237060547,-1584.0009765625,0.20108991861343384,16,0.0,0.14219067990779877,1575420030,,,,0,,6,6.5,22.299999237060547,0.0,0.0,0.0,0.0,C,64158597247406,1,-29424971.486989997,-2012033.6235319944,2463291.856977907,-253.41379051177154,17.308963941491502,-2988.1282784951513,-52201.20682844857,-0.0014608163255616091,0.000000027939677238464355,0.000000014901161193847656,-0.00000011920928955078125,-0.000000059604644775390625,135168.0,-16384.0,-262144.0,196608.0
Raw,1759126281999,9111440772,18,,-1443161490888559104,0.0,10.200191497802734,,,0,16,0.0,3080,108699916323235,24,26.299999237060547,-755.7800903320312,0.22041483223438263,16,0.0,0.15585532784461975,1575420030,,,,0,,6,6.5,21.299999237060547,0.0,0.0,0.0,0.0,C,64158597247406,1,-19857198.970223412,21623000.334158838,3845401.327135269,288.0221657212661,-264.5166215914444,2977.574162619071,-19688.332154400792,-0.0006922643442521803,0.000000027939677238464355,0.000000014901161193847656,-0.00000011920928955078125,-0.000000059604644775390625,135168.0,-16384.0,-262144.0,196608.0
Raw,1759126281999,9111440772,18,,-1443161490888559104,0.0,10.200191497802734,,,0,14,0.0,226,33081920715548,20,29.399999618530273,-557.9495849609375,0.1679656058549881,16,0.0,0.11876848340034485,1598062460,,,,0,,3,6.5,24.399999618530273,0.0,0.0,0.0,0.0,C,64158597247406,1,-9569638.413065802,20101620.412057366,12484837.297547484,398.19177129225386,-1662.3194221411864,2982.5912694058675,8949.309267358854,0.0,0.000000027939677238464355,0.000000014901161193847656,-0.00000011920928955078125,-0.000000059604644775390625,135168.0,-16384.0,-262144.0,196608.0
Raw,1759126281999,9111440772,18,,-1443161490888559104,0.0,10.200191497802734,,,0,18,0.0,227,33081920011470,42,20.200000762939453,-1654.5860595703125,0.43282550573349,16,0.0,0.3060509264469147,1600312450,,,,0,,3,6.5,15.199999809265137,0.0,0.0,0.0,0.0,C,64158597247406,1,7563742.810258221,17260479.43852717,-17190058.543286797,-1663.1894801147669,-1679.55052896868,-2411.8681733303315,67375.17613210455,0.0005453193043649662,0.000000027939677238464355,0.000000014901161193847656,-0.00000011920928955078125,-0.000000059604644775390625,135168.0,-16384.0,-262144.0,196608.0
Raw,1759126281999,9111440772,18,,-1443161490888559104,0.0,10.200191497802734,,,0,2,0.0,227,33081934768382,45,19.700000762939453,-1468.4185791015625,0.46277016401290894,16,0.0,0.3272247910499573,1599750020,,,,0,,3,6.5,14.699999809265137,0.0,0.0,0.0,0.0,C,64158597247406,1,-24133317.836862486,5132948.249053533,-6280451.115694992,883.7718539342624,-97.4230833303518,-3460.8319209622096,-6805.026511507109,0.0,0.000000027939677238464355,0.000000014901161193847656,-0.00000011920928955078125,-0.000000059604644775390625,135168.0,-16384.0,-262144.0,196608.0
Agc,1759126281999,9111440772,18,,-1443161490888559104,0.0,10.200191497802734,,,0,6.5,1575420032,1
Agc,1759126281999,9111440772,18,,-1443161490888559104,0.0,10.200191497802734,,,0,6.5,1575420032,1
Agc,1759126281999,9111440772,18,,-1443161490888559104,0.0,10.200191497802734,,,0,6.5,1575420032,1
Agc,1759126281999,9111440772,18,,-1443161490888559104,0.0,10.200191497802734,,,0,6.5,1575420032,1
Agc,1759126281999,9111440772,18,,-1443161490888559104,0.0,10.200191497802734,,,0,6.5,1575420032,5
Agc,1759126281999,9111440772,18,,-1443161490888559104,0.0,10.200191497802734,,,0,6.5,1575420032,6
Agc,1759126281999,9111440772,18,,-1443161490888559104,0.0,10.200191497802734,,,0,6.5,1602000000,3
Agc,1759126281999,9111440772,18,,-1443161490888559104,0.0,10.200191497802734,,,0,6.5,1575420032,6
Agc,1759126281999,9111440772,18,,-1443161490888559104,0.0,10.200191497802734,,,0,6.5,1561097984,5
Agc,1759126281999,9111440772,18,,-1443161490888559104,0.0,10.200191497802734,,,0,6.5,1575420032,6
Agc,1759126281999,9111440772,18,,-1443161490888559104,0.0,10.200191497802734,,,0,6.5,1561097984,5
Agc,1759126281999,9111440772,18,,-1443161490888559104,0.0,10.200191497802734,,,0,6.5,1575420032,6
Agc,1759126281999,9111440772,18,,-1443161490888559104,0.0,10.200191497802734,,,0,6.5,1575420032,6
Agc,1759126281999,9111440772,18,,-1443161490888559104,0.0,10.200191497802734,,,0,6.5,1598062464,3
Agc,1759126281999,9111440772,18,,-1443161490888559104,0.0,10.200191497802734,,,0,6.5,1600312448,3
Agc,1759126281999,9111440772,18,,-1443161490888559104,0.0,10.200191497802734,,,0,6.5,1599750016,3
Fix,GPS,-27.4943480361,153.0139758345,89.0,0.0,34.5,,1759126282000,0.81,,64158597247406,26.0,0,,,
Fix,FLP,-27.4942722000,153.0139248000,59.39999771118164,0.1706563,38.2,327.41,1759126282256,0.81,45.0,64158597247406,1.5587444,0,,,
Status,,18,0,1,29,1575420030,21.90,62.9,65.2,1,0,1,16.9
Status,,18,1,1,23,1575420030,24.70,284.8,64.4,1,0,1,19.7
Status,,18,2,1,10,1575420030,41.30,308.7,22.4,1,0,1,36.3
Status,,18,3,1,25,1575420030,33.80,356.7,12.7,1,0,1,28.8
Status,,18,4,3,2,1599750020,19.60,49.5,64.5,0,0,1,14.6
Status,,18,5,3,15,1602000000,32.60,275.4,19.6,1,0,1,27.6
Status,,18,6,3,3,1602000000,21.70,352.4,19.5,0,0,1,16.7
Status,,18,7,3,14,1598062460,28.80,324.7,8.5,1,0,1,23.8
Status,,18,8,3,18,1600312450,20.10,231.9,6.0,0,0,1,15.1
Status,,18,9,6,25,1575420030,28.50,293.4,46.2,1,0,1,23.5
Status,,18,10,6,16,1575420030,26.20,327.4,40.4,1,0,1,21.2
Status,,18,11,6,6,1575420030,27.30,47.5,36.0,1,0,1,22.3
Status,,18,12,6,9,1575420030,31.40,21.1,26.0,1,0,1,26.4
Status,,18,13,6,24,1575420030,36.50,353.4,25.5,1,0,1,31.5
Status,,18,14,5,41,1575420030,40.90,18.1,68.6,1,0,1,35.9
Status,,18,15,5,3,1561097980,28.20,297.7,33.0,1,0,1,23.2
Status,,18,16,5,8,1561097980,14.30,312.2,26.9,0,0,1,9.3
Status,,18,17,5,13,1561097980,29.80,312.4,15.1,1,0,1,24.8
Raw,1759126282999,10111436801,18,,-1443161490888563200,0.0,10.200191497802734,,,0,10,0.0,15,108700921724543,10,41.29999923706055,-1778.7130126953125,0.07589038461446762,25,-15765.275278238165,0.05366209149360657,1575420030,,,,0,,1,6.5,36.29999923706055,0.0,0.0,0.0,0.0,C,64159597243375,1,-10004187.355957344,23955714.53236109,4894087.557773881,-473.9493824653418,413.39919460216055,-3183.974361391693,-160975.15487769988,-0.0026526974979788065,0.000000027939677238464355,0.000000014901161193847656,-0.00000011920928955078125,-0.000000059604644775390625,135168.0,-16384.0,-262144.0,196608.0
Raw,1759126282999,10111436801,18,,-1443161490888563200,0.0,10.200191497802734,,,0,25,0.0,15,108700920132258,15,33.79999923706055,-581.8300170898438,0.12056328356266022,16,0.0,0.08525029569864273,1575420030,,,,0,,1,6.5,28.799999237060547,0.0,0.0,0.0,0.0,C,64159597243375,1,-18273097.634047553,10769840.106768154,15453420.206221113,737.0590695232918,-1922.1341658451006,2185.067085005927,140742.9052753394,-0.0017513408965896815,0.000000027939677238464355,0.000000014901161193847656,-0.00000011920928955078125,-0.000000059604644775390625,135168.0,-16384.0,-262144.0,196608.0
Raw,1759126282999,10111436801,18,,-1443161490888563200,0.0,10.200191497802734,,,0,23,0.0,15,108700932129046,28,24.700000762939453,-1361.746337890625,0.25767216086387634,16,0.0,0.18219998478889465,1575420030,,,,0,,1,6.5,19.700000762939453,0.0,0.0,0.0,0.0,C,64159597243375,1,-16722941.029676946,18102606.308997594,-9491313.878053237,391.7530694518614,-1171.6520358549942,-2932.6786013550295,164832.37399377362,0.001130351098254323,0.000000027939677238464355,0.000000014901161193847656,-0.00000011920928955078125,-0.000000059604644775390625,135168.0,-16384.0,-262144.0,196608.0
Raw,1759126282999,10111436801,18,,-1443161490888563200,0.0,10.200191497802734,,,0,29,0.0,15,108700930423756,36,21.799999237060547,-978.6233520507812,0.35430842638015747,16,0.0,0.25053149461746216,1575420030,,,,0,,1,6.5,16.799999237060547,0.0,0.0,0.0,0.0,C,64159597243375,1,-25057583.53169001,4085119.3423969,-8094283.648088822,-1001.7191256025096,-302.80267977044696,2946.771061042685,-134381.78931752354,0.001966085925232619,0.000000027939677238464355,0.000000014901161193847656,-0.00000011920928955078125,-0.000000059604644775390625,135168.0,-16384.0,-262144.0,196608.0
Raw,1759126282999,10111436801,18,,-1443161490888563200,0.0,10.200191497802734,,,0,41,0.0,81921,108686926081237,10,40.900001525878906,-1437.71044921875,0.0775909498333931,25,-3525.0684793169494,0.054864559322595596,1575420030,,,,0,,5,6.5,35.900001525878906,0.0,0.0,0.0,0.0,P,64159597243375,1,-25381564.112051837,10141000.876742192,-5646014.202924535,535.1174528840389,-372.32893858729835,-3049.035874940618,-290563.9643572298,-0.002282941190060228,0.000000027939677238464355,0.000000014901161193847656,-0.00000011920928955078125,-0.000000059604644775390625,135168.0,-16384.0,-262144.0,196608.0
Raw,1759126282999,10111436801,18,,-1443161490888563200,0.0,10.200191497802734,,,0,24,0.0,3080,108700912186233,13,36.400001525878906,-651.7277221679688,0.10142399370670319,25,-4391.7284708602465,0.07171690464019775,1575420030,,,,0,,6,6.5,31.399999618530273,0.0,0.0,0.0,0.0,C,64159597243375,1,-22440488.484475568,14459720.642925289,12753300.442608388,819.4973240467655,-985.8731388833631,2558.989765326371,-61017.12324800739,-0.006550925703777466,0.000000027939677238464355,0.000000014901161193847656,-0.00000011920928955078125,-0.000000059604644775390625,135168.0,-16384.0,-262144.0,196608.0
Raw,1759126282999,10111436801,18,,-1443161490888563200,0.0,10.200191497802734,,,0,15,0.0,227,33082924513342,16,32.599998474121094,-804.0326538085938,0.13127493858337402,16,0.0,0.09282451122999191,1602000000,,,,0,,3,6.5,27.600000381469727,0.0,0.0,0.0,0.0,C,64159597243375,1,-2269790.059844946,24982955.546229266,-4634068.697162924,28.12830957910228,652.642336512477,3488.5780743864907,19086.07095146738,0.0,0.000000027939677238464355,0.000000014901161193847656,-0.00000011920928955078125,-0.000000059604644775390625,135168.0,-16384.0,-262144.0,196608.0
Raw,1759126282999,10111436801,18,,-1443161490888563200,0.0,10.200191497802734,,,0,9,0.0,3080,108700912495396,17,31.299999237060547,-1699.5997314453125,0.14457345008850098,25,-14357.373088568384,0.10222788900136948,1575420030,,,,0,,6,6.5,26.299999237060547,0.0,0.0,0.0,0.0,C,64159597243375,1,-27069299.724074695,4248949.096454634,11208703.813519636,-1126.0600953593107,-65.0788736648583,-2691.3118123813438,-9360.695072718143,-0.004622596319677541,0.000000027939677238464355,0.000000014901161193847656,-0.00000011920928955078125,-0.000000059604644775390625,135168.0,-16384.0,-262144.0,196608.0
Raw,1759126282999,10111436801,18,,-1443161490888563200,0.0,10.200191497802734,,,0,13,0.0,15,108686866559217,19,29.700000762939453,-1351.6956787109375,0.16391023993492126,16,0.0,0.1159009337425232,1561097980,,,,0,,5,6.5,24.700000762939453,0.0,0.0,0.0,0.0,I,64159597243375,1,-11071288.932798982,37610153.64875125,15314840.476751897,887.9487449988474,1229.6123225442484,-2422.5805158438316,-42744.284264304355,-0.004060668732563499,0.000000027939677238464355,0.000000014901161193847656,-0.00000011920928955078125,-0.000000059604644775390625,135168.0,-16384.0,-262144.0,196608.0
Raw,1759126282999,10111436801,18,,-1443161490888563200,0.0,10.200191497802734,,,0,25,0.0,3080,108700917766023,21,28.5,-939.355712890625,0.18107740581035614,16,0.0,0.12803983688354492,1575420030,,,,0,,6,6.5,23.5,0.0,0.0,0.0,0.0,C,64159597243375,1,-14829371.600809464,25100227.15783266,-5096628.375775813,-264.2492669648967,442.78423251587395,2945.480289616968,6200.978272537776,0.000041249370951845776,0.000000027939677238464355,0.000000014901161193847656,-0.00000011920928955078125,-0.000000059604644775390625,135168.0,-16384.0,-262144.0,196608.0
Raw,1759126282999,10111436801,18,,-1443161490888563200,0.0,10.200191497802734,,,0,3,0.0,305,896747,21,28.200000762939453,-1192.359375,0.18579070270061493,16,0.0,0.1313726007938385,1561097980,,,,0,,5,6.5,23.200000762939453,0.0,0.0,0.0,0.0,I,64159597243375,1,,,,,,,,,0.000000027939677238464355,0.000000014901161193847656,-0.00000011920928955078125,-0.000000059604644775390625,135168.0,-16384.0,-262144.0,196608.0
Raw,1759126282999,10111436801,18,,-1443161490888563200,0.0,10.200191497802734,,,0,6,0.0,3080,108700915151507,23,27.299999237060547,-1585.1500244140625,0.20108991861343384,16,0.0,0.14219067990779877,1575420030,,,,0,,6,6.5,22.299999237060547,0.0,0.0,0.0,0.0,C,64159597243375,1,-29425224.751846433,-2012016.2859544682,2460303.705984426,-253.11527977958184,17.36613993575829,-2988.1661407382776,-52201.20828926358,-0.0014608100100304,0.000000027939677238464355,0.000000014901161193847656,-0.00000011920928955078125,-0.000000059604644775390625,135168.0,-16384.0,-262144.0,196608.0
Raw,1759126282999,10111436801,18,,-1443161490888563200,0.0,10.200191497802734,,,0,16,0.0,3080,108700916321888,25,26.200000762939453,-756.8026733398438,0.2224990874528885,16,0.0,0.15732909739017487,1575420030,,,,0,,6,6.5,21.200000762939453,0.0,0.0,0.0,0.0,C,64159597243375,1,-19856910.868055716,21622735.68833725,3848378.8677453795,288.18293891091855,-264.7757381058643,2977.515071458235,-19688.332846663645,-0.0006922632237547077,0.000000027939677238464355,0.000000014901161193847656,-0.00000011920928955078125,-0.000000059604644775390625,135168.0,-16384.0,-262144.0,196608.0
Raw,1759126282999,10111436801,18,,-1443161490888563200,0.0,10.200191497802734,,,0,14,0.0,227,33082920713514,21,28.299999237060547,-558.859619140625,0.18419939279556274,16,0.0,0.13024738430976868,1598062460,,,,0,,3,6.5,23.299999237060547,0.0,0.0,0.0,0.0,C,64159597243375,1,-9569240.25409127,20099957.879542246,12487819.733079217,398.1277789900744,-1662.7523812587474,2982.2919341637175,8949.309267358854,0.0,0.000000027939677238464355,0.000000014901161193847656,-0.00000011920928955078125,-0.000000059604644775390625,135168.0,-16384.0,-262144.0,196608.0
Raw,1759126282999,10111436801,18,,-1443161490888563200,0.0,10.200191497802734,,,0,18,0.0,227,33082920012784,43,20.100000381469727,-1655.28125,0.43857723474502563,16,0.0,0.3101179599761963,1600312450,,,,0,,3,6.5,15.100000381469727,0.0,0.0,0.0,0.0,C,64159597243375,1,7562079.425419762,17258799.845727883,-17192470.208157916,-1663.575842658402,-1679.6306454568567,-2411.4552439425784,67375.17667742456,0.0005453193043649662,0.000000027939677238464355,0.000000014901161193847656,-0.00000011920928955078125,-0.000000059604644775390625,135168.0,-16384.0,-262144.0,196608.0
Raw,1759126282999,10111436801,18,,-1443161490888563200,0.0,10.200191497802734,,,0,2,0.0,227,33082934769160,46,19.5,-1470.1646728515625,0.4756242632865906,16,0.0,0.3363139033317566,1599750020,,,,0,,3,6.5,14.5,0.0,0.0,0.0,0.0,C,64159597243375,1,-24132433.844134115,5132850.713100272,-6283911.874415381,884.2122170579127,-97.6486948338686,-3460.6801492459686,-6805.026511507109,0.0,0.000000027939677238464355,0.000000014901161193847656,-0.00000011920928955078125,-0.000000059604644775390625,135168.0,-16384.0,-262144.0,196608.0
Agc,1759126282999,10111436801,18,,-1443161490888563200,0.0,10.200191497802734,,,0,6.5,1575420032,1
Agc,1759126282999,10111436801,18,,-1443161490888563200,0.0,10.200191497802734,,,0,6.5,1575420032,1
Agc,1759126282999,10111436801,18,,-1443161490888563200,0.0,10.200191497802734,,,0,6.5,1575420032,1
Agc,1759126282999,10111436801,18,,-1443161490888563200,0.0,10.200191497802734,,,0,6.5,1575420032,1
Agc,1759126282999,10111436801,18,,-1443161490888563200,0.0,10.200191497802734,,,0,6.5,1575420032,5
Agc,1759126282999,10111436801,18,,-1443161490888563200,0.0,10.200191497802734,,,0,6.5,1575420032,6
Agc,1759126282999,10111436801,18,,-1443161490888563200,0.0,10.200191497802734,,,0,6.5,1602000000,3
Agc,1759126282999,10111436801,18,,-1443161490888563200,0.0,10.200191497802734,,,0,6.5,1575420032,6
Agc,1759126282999,10111436801,18,,-1443161490888563200,0.0,10.200191497802734,,,0,6.5,1561097984,5
Agc,1759126282999,10111436801,18,,-1443161490888563200,0.0,10.200191497802734,,,0,6.5,1575420032,6
Agc,1759126282999,10111436801,18,,-1443161490888563200,0.0,10.200191497802734,,,0,6.5,1561097984,5
Agc,1759126282999,10111436801,18,,-1443161490888563200,0.0,10.200191497802734,,,0,6.5,1575420032,6
Agc,1759126282999,10111436801,18,,-1443161490888563200,0.0,10.200191497802734,,,0,6.5,1575420032,6
Agc,1759126282999,10111436801,18,,-1443161490888563200,0.0,10.200191497802734,,,0,6.5,1598062464,3
Agc,1759126282999,10111436801,18,,-1443161490888563200,0.0,10.200191497802734,,,0,6.5,1600312448,3
Agc,1759126282999,10111436801,18,,-1443161490888563200,0.0,10.200191497802734,,,0,6.5,1599750016,3
Fix,GPS,-27.4943480361,153.0139758345,89.0,0.0,30.5,,1759126283000,0.66,,64159597243375,23.0,0,,,
Fix,FLP,-27.4943035000,153.0139457000,59.39999771118164,0.6387579,35.3,149.90166,1759126283257,0.66,45.0,64159597243375,1.5687444,0,,,
Status,,19,0,1,29,1575420030,21.80,62.9,65.2,1,0,1,16.8
Status,,19,1,1,23,1575420030,24.80,284.8,64.4,1,0,1,19.8
Status,,19,2,1,10,1575420030,41.30,308.7,22.4,1,0,1,36.3
Status,,19,3,1,25,1575420030,33.80,356.7,12.7,1,0,1,28.8
Status,,19,4,3,2,1599750020,19.40,49.5,64.5,0,0,1,14.4
Status,,19,5,3,15,1602000000,32.80,275.4,19.6,1,0,1,27.8
Status,,19,6,3,3,1602000000,18.70,352.4,19.5,0,0,1,13.7
Status,,19,7,3,14,1598062460,27.80,324.7,8.5,1,0,1,22.8
Status,,19,8,3,18,1600312450,20.00,231.9,6.0,0,0,1,15.0
Status,,19,9,6,25,1575420030,28.70,293.5,46.2,1,0,1,23.7
Status,,19,10,6,16,1575420030,26.20,327.4,40.4,1,0,1,21.2
Status,,19,11,6,6,1575420030,27.30,47.5,36.0,1,0,1,22.3
Status,,19,12,6,9,1575420030,31.30,21.1,26.1,1,0,1,26.3
Status,,19,13,6,24,1575420030,36.40,353.4,25.4,1,0,1,31.4
Status,,19,14,5,41,1575420030,41.10,18.1,68.6,1,0,1,36.1
Status,,19,15,5,3,1561097980,28.20,297.7,33.0,1,0,1,23.2
Status,,19,16,5,8,1561097980,12.80,312.2,26.9,0,0,1,7.8
Status,,19,17,5,32,1575420030,34.10,336.3,18.8,1,0,1,29.1
Status,,19,18,5,13,1561097980,29.70,312.4,15.1,1,0,1,24.7
Raw,1759126283999,11111432830,18,,-1443161490888567296,0.0,10.200191497802734,,,0,10,0.0,15,108701921726505,10,41.20000076293945,-1779.15771484375,0.07631023973226547,25,-17544.173036699875,0.05395897105336189,1575420030,,,,0,,1,6.5,36.20000076293945,0.0,0.0,0.0,0.0,C,64160597239443,1,-10004661.19458068,23956127.771641992,4890903.52425895,-473.72601128148494,413.07773872687096,-3184.08016290163,-160975.15753047023,-0.0026528328307904303,0.000000027939677238464355,0.000000014901161193847656,-0.00000011920928955078125,-0.000000059604644775390625,135168.0,-16384.0,-262144.0,196608.0
Raw,1759126283999,11111432830,18,,-1443161490888567296,0.0,10.200191497802734,,,0,25,0.0,15,108701920130249,15,33.70000076293945,-582.1759643554688,0.12140488624572754,16,0.0,0.08584539592266083,1575420030,,,,0,,1,6.5,28.700000762939453,0.0,0.0,0.0,0.0,C,64160597239443,1,-18272360.56373112,10767917.83260533,15455605.098481122,737.0845159655021,-1922.4218788260907,2184.7262057734274,140742.90352397252,-0.0017513998900540173,0.000000027939677238464355,0.000000014901161193847656,-0.00000011920928955078125,-0.000000059604644775390625,135168.0,-16384.0,-262144.0,196608.0
Raw,1759126283999,11111432830,18,,-1443161490888567296,0.0,10.200191497802734,,,0,23,0.0,15,108701932129652,28,24.799999237060547,-1362.6246337890625,0.25507602095603943,16,0.0,0.18036425113677979,1575420030,,,,0,,1,6.5,19.799999237060547,0.0,0.0,0.0,0.0,C,64160597239443,1,-16722549.225327328,18101434.479931973,-9494246.455699278,391.85514527102106,-1172.0046744102015,-2932.473125889769,164832.3751241309,0.0011303620412945747,0.000000027939677238464355,0.000000014901161193847656,-0.00000011920928955078125,-0.000000059604644775390625,135168.0,-16384.0,-262144.0,196608.0
Raw,1759126283999,11111432830,18,,-1443161490888567296,0.0,10.200191497802734,,,0,29,0.0,15,108701930423011,36,21.799999237060547,-979.6150512695312,0.35430842638015747,16,0.0,0.25053149461746216,1575420030,,,,0,,1,6.5,16.799999237060547,0.0,0.0,0.0,0.0,C,64160597239443,1,-25058585.07483107,4084816.580814047,-8091336.793959582,-1001.368644227533,-302.7209448374316,2946.941577942249,-134381.7873514384,0.001966087322216481,0.000000027939677238464355,0.000000014901161193847656,-0.00000011920928955078125,-0.000000059604644775390625,135168.0,-16384.0,-262144.0,196608.0
Raw,1759126283999,11111432830,18,,-1443161490888567296,0.0,10.200191497802734,,,0,41,0.0,81921,108687926082062,10,41.099998474121094,-1438.27294921875,0.07673361152410507,25,-4963.0795339544275,0.05425833538174629,1575420030,,,,0,,5,6.5,36.099998474121094,0.0,0.0,0.0,0.0,P,64160597239443,1,-25381028.856097575,10140628.442457471,-5649063.189534549,535.3935662601174,-372.5390222081188,-3048.9323048800597,-290563.96664018155,-0.0022829585359431803,0.000000027939677238464355,0.000000014901161193847656,-0.00000011920928955078125,-0.000000059604644775390625,135168.0,-16384.0,-262144.0,196608.0
Raw,1759126283999,11111432830,18,,-1443161490888567296,0.0,10.200191497802734,,,0,24,0.0,3080,108701912184420,13,36.29999923706055,-652.2864379882812,0.10207311064004898,25,-5043.713893553323,0.07217589765787125,1575420030,,,,0,,6,6.5,31.299999237060547,0.0,0.0,0.0,0.0,C,64160597239443,1,-22439668.947495475,14458734.638976874,12755859.329560967,819.5795999029065,-986.1383335284365,2558.7934116882907,-61017.12979892166,-0.006550926620548125,0.000000027939677238464355,0.000000014901161193847656,-0.00000011920928955078125,-0.000000059604644775390625,135168.0,-16384.0,-262144.0,196608.0
Raw,1759126283999,11111432830,18,,-1443161490888567296,0.0,10.200191497802734,,,0,32,0.0,81921,108687915062260,15,34.099998474121094,-1822.199951171875,0.11809024214744568,16,0.0,0.08350160717964172,1575420030,,,,0,,5,6.5,29.100000381469727,0.0,0.0,0.0,0.0,P,64160597239443,1,-16114102.014237097,18952276.623821154,12661768.660328288,-1276.6007072078194,677.834940401783,-2638.305376425935,-285717.1716765677,-0.0004975514020770788,0.000000027939677238464355,0.000000014901161193847656,-0.00000011920928955078125,-0.000000059604644775390625,135168.0,-16384.0,-262144.0,196608.0
Raw,1759126283999,11111432830,18,,-1443161490888567296,0.0,10.200191497802734,,,0,15,0.0,227,33083924512049,16,32.79999923706055,-804.6693725585938,0.12939289212226868,16,0.0,0.09149371087551117,1602000000,,,,0,,3,6.5,27.799999237060547,0.0,0.0,0.0,0.0,C,64160597239443,1,-2269761.862769021,24983607.952138904,-4630580.06797815,28.265889347667553,652.1711743899639,3488.689328276184,19086.07095146738,0.0,0.000000027939677238464355,0.000000014901161193847656,-0.00000011920928955078125,-0.000000059604644775390625,135168.0,-16384.0,-262144.0,196608.0
Raw,1759126283999,11111432830,18,,-1443161490888567296,0.0,10.200191497802734,,,0,9,0.0,3080,108701912497135,17,31.299999237060547,-1700.0487060546875,0.14457345008850098,25,-16057.14884244676,0.10222788900136948,1575420030,,,,0,,6,6.5,26.299999237060547,0.0,0.0,0.0,0.0,C,64160597239443,1,-27070425.654911,4248884.078234632,11206012.410921117,-1125.7976563979453,-64.95734643634582,-2691.4840169868307,-9360.699695320538,-0.004622592396117398,0.000000027939677238464355,0.000000014901161193847656,-0.00000011920928955078125,-0.000000059604644775390625,135168.0,-16384.0,-262144.0,196608.0
Raw,1759126283999,11111432830,18,,-1443161490888567296,0.0,10.200191497802734,,,0,13,0.0,15,108687866559730,19,29.600000381469727,-1353.2071533203125,0.16524554789066315,16,0.0,0.11684512346982956,1561097980,,,,0,,5,6.5,24.600000381469727,0.0,0.0,0.0,0.0,I,64160597239443,1,-11070400.893782683,37611383.19642511,15312417.854058936,888.1283733495184,1229.4817592397508,-2422.6623822411334,-42744.28832498739,-0.004060693179781083,0.000000027939677238464355,0.000000014901161193847656,-0.00000011920928955078125,-0.000000059604644775390625,135168.0,-16384.0,-262144.0,196608.0
Raw,1759126283999,11111432830,18,,-1443161490888567296,0.0,10.200191497802734,,,0,25,0.0,3080,108701917765210,21,28.700000762939453,-941.2273559570312,0.17803412675857544,16,0.0,0.125887930393219,1575420030,,,,0,,6,6.5,23.700000762939453,0.0,0.0,0.0,0.0,C,64160597239443,1,-14829635.74298909,25100669.834718194,-5093682.858697291,-264.03552652946416,442.570252429051,2945.5586492970665,6200.978313788126,0.00004125139548705192,0.000000027939677238464355,0.000000014901161193847656,-0.00000011920928955078125,-0.000000059604644775390625,135168.0,-16384.0,-262144.0,196608.0
Raw,1759126283999,11111432830,18,,-1443161490888567296,0.0,10.200191497802734,,,0,3,0.0,305,896717,21,28.100000381469727,-1192.1739501953125,0.18740276992321014,16,0.0,0.13251249492168427,1561097980,,,,0,,5,6.5,23.100000381469727,0.0,0.0,0.0,0.0,I,64160597239443,1,,,,,,,,,0.000000027939677238464355,0.000000014901161193847656,-0.00000011920928955078125,-0.000000059604644775390625,135168.0,-16384.0,-262144.0,196608.0
Raw,1759126283999,11111432830,18,,-1443161490888567296,0.0,10.200191497802734,,,0,6,0.0,3080,108701915152882,23,27.299999237060547,-1585.535400390625,0.20108991861343384,16,0.0,0.14219067990779877,1575420030,,,,0,,6,6.5,22.299999237060547,0.0,0.0,0.0,0.0,C,64160597239443,1,-29425477.71821416,-2011998.891220845,2457315.516822961,-252.8167582252217,17.423272219161532,-2988.203957023437,-52201.20975007244,-0.001460803694499191,0.000000027939677238464355,0.000000014901161193847656,-0.00000011920928955078125,-0.000000059604644775390625,135168.0,-16384.0,-262144.0,196608.0
Raw,1759126283999,11111432830,18,,-1443161490888567296,0.0,10.200191497802734,,,0,16,0.0,3080,108701916320352,25,26.200000762939453,-758.9135131835938,0.2224990874528885,16,0.0,0.15732909739017487,1575420030,,,,0,,6,6.5,21.200000762939453,0.0,0.0,0.0,0.0,C,64160597239443,1,-19856622.60519,21622470.783439104,3851356.348678807,288.343671370959,-265.0348753415875,2977.4559345762727,-19688.33353892525,-0.000692262106895214,0.000000027939677238464355,0.000000014901161193847656,-0.00000011920928955078125,-0.000000059604644775390625,135168.0,-16384.0,-262144.0,196608.0
